[
	{
		"id": "1",
		"color": "British Racing Green",
		"vin": "JM1NA3510M1221538",
		"owner": {
			"id": "1",
			"name": "Matthew Congrove"
		},
		"image": "/images/cars/1991SE182.jpg",
		"sequence": 182,
		"edition": {
			"id": "brg-1991",
			"name": "British Racing Green",
			"color": "British Racing Green",
			"generation": "NA",
			"year": 1991,
			"totalProduced": 4000
		},
		"manufactureDate": "1990-12-06T20:40:00",
		"shipping": {
			"port": "BENECIA",
			"vessel": "ASIAN HIGHWAY",
			"date": "1990-12-14"
		},
		"location": {
			"country": "US",
			"state": "TX",
			"city": "Austin"
		}
	},
	{
		"id": "2",
		"color": "Black",
		"vin": "JM1NA3512P1234568",
		"owner": {
			"id": "2",
			"name": "Jane Smith"
		},
		"image": "/images/cars/1991SE182.jpg",
		"sequence": 1205,
		"edition": {
			"id": "le-black-red-1993",
			"name": "Black & Red",
			"color": "Black",
			"generation": "NA",
			"year": 1993,
			"totalProduced": 1500
		},
		"location": {
			"country": "US",
			"state": "CA",
			"city": "Los Angeles"
		}
	},
	{
		"id": "3",
		"color": "Mariner Blue",
		"vin": "JM1NB3512X1234569",
		"owner": {
			"id": "3",
			"name": "Bob Wilson"
		},
		"image": "/images/cars/1991SE182.jpg",
		"sequence": 2,
		"edition": {
			"id": "10th-anniversary-1999",
			"name": "10th Anniversary",
			"color": "Mariner Blue",
			"generation": "NB",
			"year": 1999,
			"totalProduced": 7500
		},
		"location": {
			"country": "US",
			"state": "CA",
			"city": "Los Angeles"
		}
	},
	{
		"id": "4",
		"color": "Merlot Mica",
		"vin": "JM1NB3512Y1234570",
		"image": "/images/cars/1991SE182.jpg",
		"sequence": 782,
		"edition": {
			"id": "mazdaspeed-2004",
			"name": "Mazdaspeed",
			"color": "Merlot Mica",
			"generation": "NB",
			"year": 2004,
			"totalProduced": 5428
		},
		"location": {
			"country": "US",
			"state": "CA",
			"city": "Los Angeles"
		}
	},
	{
		"id": "5",
		"color": "Sunburst Yellow",
		"vin": "JM1NC3512Z1234571",
		"image": "/images/cars/1992SBY1176.jpg",
		"owner": {
			"id": "4",
			"name": "Charlie Davis"
		},
		"sequence": 15,
		"edition": {
			"id": "prht-launch-edition-2005",
			"name": "PRHT Launch Edition",
			"color": "Sunburst Yellow",
			"generation": "NC",
			"year": 2005,
			"totalProduced": 400
		},
		"location": {
			"country": "US",
			"state": "CA",
			"city": "Los Angeles"
		}
	}
]
